[
  {
    "id": "1",
    "name": "Cutea Bubbletea",
    "address": "Schouwburgplein 11, 3012 CL Rotterdam",
    "specialty": "Cheese foam & fresh watermelon tea",
    "description": "A cosy, pink-themed bubble tea shop near Schouwburgplein, known for its cheese and cake foam add-ons and freshly made fruit teas.",
    "image": "https://encrypted-tbn0.gstatic.com/images?q=tbn:ANd9GcSSNLRpvEFzGCh-eydYDucZBe8ZsOnZqAsspzZQMRBqBD8bcAcD0Bwhjhdn&s=10",
    "latitude": 51.9205074,
    "longitude": 4.4730475
  },
  {
    "id": "2",
    "name": "YOYO! Fresh Tea Bar",
    "address": "Kruisplein 28, 3012 CC Rotterdam",
    "specialty": "Mango boba green tea",
    "description": "A spacious tea bar close to Rotterdam Centraal with self-service ordering screens and a wide range of fruit and milk teas.",
    "image": "https://encrypted-tbn0.gstatic.com/images?q=tbn:ANd9GcSNZMDVdu1NXd2ZrwuEznQTEYA048ri9C-boJWBVtf3Xc0rHRNHzxUFkYQ&s=10",
    "latitude": 51.9219235,
    "longitude": 4.4717302
  },
  {
    "id": "3",
    "name": "machi machi Rotterdam",
    "address": "Hoogstraat 117A, 3011 PL Rotterdam",
    "specialty": "Matcha latte with cream brulee",
    "description": "A minimalist bubble tea and matcha spot near Markthal and Blaak station, praised for its rich matcha lattes and thick tapioca pearls.",
    "image": "https://encrypted-tbn0.gstatic.com/images?q=tbn:ANd9GcTkkF3jQjfrzc1YIZOAU_uJAzuXVBjNS-b1CAWHZYxhBD5eIV-R2NNWQw&s=10",
    "latitude": 51.9217391,
    "longitude": 4.4892323
  },
  {
    "id": "4",
    "name": "CoCo Bubble Tea (Koopgoot)",
    "address": "Beurstraverse 146, 3012 AT Rotterdam",
    "specialty": "Adjustable sugar level classic milk tea",
    "description": "A well-known bubble tea chain located in the heart of the Koopgoot shopping street, offering fully adjustable sugar levels on all drinks.",
    "image": "https://lilla.com/wp-content/uploads/2025/10/Log-coco-bubble-tea.png",
    "latitude": 51.9197610,
    "longitude": 4.4798154
  },
  {
    "id": "5",
    "name": "8tea5 Rotterdam",
    "address": "Stadhuisplein 34, 3012 ET Rotterdam",
    "specialty": "Brown sugar boba tea",
    "description": "A colourfully decorated bubble tea bar on Stadhuisplein with an 80s-inspired interior and a signature dirty milk tea.",
    "image": "https://encrypted-tbn0.gstatic.com/images?q=tbn:ANd9GcQfWzm7JQrBcmigUFkaKLyP5n9Ck7Or5Lr9aLjrdVyOFCH0bXn0az756kI&s=10",
    "latitude": 51.9220843,
    "longitude": 4.4770132
  },
  {
    "id": "6",
    "name": "TEA&TEA Bubble Milk Tea",
    "address": "Goudsesingel 338A, 3011 KK Rotterdam",
    "specialty": "Handmade lime passion fruit tea",
    "description": "A small, handmade bubble tea shop known for fresh-crushed fruit teas and chewy tapioca pearls with thick cheese foam.",
    "image": "https://travander.nl/wp-content/uploads/2022/01/TEATEA-Bubble-Milk-Te-Rotterdam.jpg",
    "latitude": 51.9243069,
    "longitude": 4.4867444
  },
  {
    "id": "7",
    "name": "InfiniTea (Markthal)",
    "address": "Dominee Jan Scharpstraat 298, Unit 51, 3011 PB Rotterdam",
    "specialty": "Blue Flame Bubble Tea",
    "description": "A tea stall inside Markthal where you can smell the tea blends before ordering, also selling DIY bubble tea kits.",
    "image": "https://encrypted-tbn0.gstatic.com/images?q=tbn:ANd9GcTVRQDoLJjaz_Aov5sit6jZL1jn28ceZ5ZcGfLcRVSmrEICgFhO4P8SZmDk&s=10",
    "latitude": 51.9201813,
    "longitude": 4.4872511
  },
  {
    "id": "8",
    "name": "ONE SIP",
    "address": "Botersloot 56A, 3011 HH Rotterdam",
    "specialty": "Oat jasmine milk tea",
    "description": "A friendly, newer bubble tea shop near Meent with competitive pricing, adjustable ice and sugar levels, and indoor seating.",
    "image": "https://encrypted-tbn0.gstatic.com/images?q=tbn:ANd9GcT_KPI_8PbODBIkUcvBm4EknsyoXtkosop3oI42UT-5lg&s=10",
    "latitude": 51.9220406,
    "longitude": 4.4881569
  }
]